City_ID,City,Lat,Lng,Max Temp,Humidity,Cloudiness,Wind Speed,Country,Date
0,badger,64.8,-147.5333,16.15,72,0,2.06,US,1722797046
1,kirakira,-10.4544,161.9205,26.0,87,100,5.23,SB,1722797547
2,waitangi,-43.9535,-176.5597,6.01,89,100,6.61,NZ,1722796967
3,bethel,41.3712,-73.414,29.0,74,40,3.6,US,1722796945
4,iqaluit,63.7506,-68.5145,5.85,93,100,2.06,CA,1722797550
5,chonchi,-42.6128,-73.8092,9.51,98,100,1.52,CL,1722797166
6,agat village,13.3886,144.6585,27.06,89,0,0.0,GU,1722797552
7,albany,42.6001,-73.9662,29.32,74,64,0.45,US,1722797036
8,isafjordur,66.0755,-23.124,12.02,71,40,8.23,IS,1722796986
9,la almunia de dona godina,41.4767,-1.3745,34.23,23,23,2.12,ES,1722797556
10,rancho palos verdes,33.7445,-118.387,30.98,74,20,3.6,US,1722797495
11,ushuaia,-54.8,-68.3,-0.19,59,75,3.09,AR,1722797018
12,yellowknife,62.456,-114.3525,22.45,57,40,2.06,CA,1722796960
13,san antonio de pale,-1.4014,5.6325,22.32,73,100,4.14,GQ,1722797518
14,levelland,33.5873,-102.378,33.99,28,0,4.65,US,1722797561
15,sanctuary point,-35.1114,150.629,9.07,84,100,2.0,AU,1722797562
16,puerto pilon,9.3644,-79.7933,29.32,70,61,2.55,PA,1722797563
17,jamestown,42.097,-79.2353,28.59,57,40,4.12,US,1722796899
18,aykhal,66.0,111.5,14.02,56,13,3.34,RU,1722797462
19,port-aux-francais,-49.35,70.2167,1.85,67,31,10.04,TF,1722796897
20,leulumoega,-13.823,-171.9613,21.94,94,40,1.54,WS,1722797570
21,blackmans bay,-43.0167,147.3167,8.18,76,85,0.45,AU,1722797571
22,west island,-12.1568,96.8225,25.99,83,40,5.66,CC,1722797058
23,grytviken,-54.2811,-36.5092,-1.64,96,100,3.93,GS,1722797573
24,bandar abbas,27.1865,56.2808,33.99,79,75,2.06,IR,1722797575
25,avarua,-21.2078,-159.775,23.03,73,13,3.09,CK,1722796945
26,margaret river,-33.95,115.0667,15.29,67,76,6.81,AU,1722797577
27,sinabang,2.4803,96.3801,26.32,83,100,1.45,ID,1722797123
28,thompson,55.7435,-97.8558,19.09,42,75,3.6,CA,1722797580
29,walvis bay,-22.9575,14.5053,13.94,68,1,8.73,NA,1722797581
30,bredasdorp,-34.5322,20.0403,6.87,71,26,3.74,ZA,1722797298
31,djamaa,33.5339,5.9931,35.48,14,0,3.05,DZ,1722797583
32,papatowai,-46.5619,169.4708,6.18,91,86,3.1,NZ,1722797585
33,tazovsky,67.4667,78.7,8.7,65,89,6.33,RU,1722797586
34,porto novo,6.4965,2.6036,25.9,77,100,3.45,BJ,1722797341
35,udachny,66.4167,112.4,14.87,54,16,3.49,RU,1722797024
36,constantia,44.1833,28.65,22.61,58,12,3.12,RO,1722797049
37,kyaikkami,16.08,97.5675,26.53,86,100,5.55,MM,1722797590
38,olyokminsk,60.3736,120.4264,15.37,98,100,2.91,RU,1722797591
39,prado,-17.3411,-39.2208,24.31,75,19,3.46,BR,1722797153
40,colonia,50.9333,6.95,21.02,69,0,1.54,DE,1722797076
41,ribeira grande,38.5167,-28.7,27.22,83,40,4.12,PT,1722796780
42,balabac,7.9868,117.0645,26.74,81,100,1.84,PH,1722797304
43,adamstown,-25.066,-130.1015,21.41,76,100,6.0,PN,1722796913
44,kerikeri,-35.2268,173.9474,9.95,89,96,2.24,NZ,1722797211
45,port mathurin,-19.6833,63.4167,22.11,74,13,6.57,MU,1722797599
46,aasiaat,68.7098,-52.8699,4.53,87,88,1.98,GL,1722797051
47,utrik,11.2278,169.8474,28.35,77,76,6.08,MH,1722797116
48,summerside,46.3959,-63.7876,27.48,89,100,5.14,CA,1722797602
49,college,64.8569,-147.8028,16.2,72,20,2.06,US,1722797064
50,punta arenas,-53.15,-70.9167,2.06,80,75,2.57,CL,1722796928
51,port alfred,-33.5906,26.891,12.88,68,100,3.13,ZA,1722797606
52,letterkenny,54.95,-7.7333,18.94,98,100,4.32,IE,1722797437
53,byron bay,-28.65,153.6167,11.51,86,100,2.85,AU,1722797044
54,port elizabeth,-33.918,25.5701,12.28,71,20,10.8,ZA,1722797293
55,machico,32.7,-16.7667,25.95,69,20,6.69,PT,1722797610
56,victorica,-36.2151,-65.4359,20.28,28,77,10.0,AR,1722797611
57,kingston,17.997,-76.7936,33.53,66,20,9.77,JM,1722797450
58,invercargill,-46.4,168.35,3.9,93,87,1.34,NZ,1722797034
59,vila velha,-20.3297,-40.2925,21.97,94,75,2.57,BR,1722797426
60,puerto natales,-51.7236,-72.4875,1.25,93,75,1.03,CL,1722797615
61,ilulissat,69.2167,-51.1,5.01,93,25,2.06,GL,1722797065
62,atafu village,-8.5421,-172.5159,27.74,80,62,6.38,TK,1722797042
63,san patricio,28.017,-97.5169,34.05,40,2,3.29,US,1722796943
64,edinburgh of the seven seas,-37.0676,-12.3116,13.16,82,43,13.57,SH,1722797620
65,hithadhoo,-0.6,73.0833,28.69,75,100,4.92,MV,1722797097
66,kodiak,57.79,-152.4072,11.73,94,100,4.63,US,1722797056
67,hermanus,-34.4187,19.2345,8.22,58,98,5.31,ZA,1722797074
68,afaahiti,-17.75,-149.2833,25.93,72,79,4.95,PF,1722797624
69,pisco,-13.7,-76.2167,17.03,82,100,2.57,PE,1722797625
70,faya-largeau,17.9257,19.1043,33.95,44,86,2.53,TD,1722797515
71,baotou,40.6522,109.8222,22.21,45,0,0.86,CN,1722797628
72,saint-joseph,-21.3667,55.6167,17.21,77,19,3.58,RE,1722797629
73,qaqortoq,60.7167,-46.0333,8.74,71,0,3.3,GL,1722797144
74,fort st. john,56.2499,-120.8529,12.94,76,100,6.69,CA,1722797470
75,kiruna,67.8557,20.2251,18.51,55,100,2.57,SE,1722797632
76,ulladulla,-35.35,150.4667,7.09,79,100,2.09,AU,1722797633
77,wailua homesteads,22.0669,-159.378,25.44,82,75,7.2,US,1722797187
78,broken hill,-31.95,141.4333,9.11,81,100,2.49,AU,1722797635
79,laiyang,36.9758,120.7136,26.16,96,100,1.57,CN,1722797636
80,georgetown,5.4112,100.3354,27.96,83,20,2.06,MY,1722797136
81,ca mau,9.1769,105.15,25.45,90,100,1.4,VN,1722797639
82,lorengau,-2.0226,147.2712,26.54,81,100,2.92,PG,1722797640
83,kidal,18.4411,1.4078,33.96,34,100,4.1,ML,1722797168
84,souillac,-20.5167,57.5167,19.21,82,40,1.54,MU,1722797161
85,ola,59.5833,151.2833,11.57,90,15,0.77,RU,1722797205
86,lebu,-37.6167,-73.65,10.52,90,100,11.15,CL,1722797140
87,celestun,20.8667,-90.4,29.33,68,69,4.58,MX,1722797645
88,nadym,65.5333,72.5167,15.59,69,100,8.62,RU,1722797551
89,klaksvik,62.2266,-6.589,11.51,98,100,14.35,FO,1722797647
90,tindouf,27.6711,-8.1474,45.25,6,0,5.14,DZ,1722797648
91,mweka,-4.85,21.5667,25.91,29,91,0.53,CD,1722797650
92,nouadhibou,20.931,-17.0347,27.99,69,3,4.63,MR,1722797651
93,susuman,62.7833,148.1667,9.15,62,19,1.11,RU,1722797652
94,holualoa,19.6228,-155.9522,23.08,90,100,0.0,US,1722797653
95,puerto leguizamo,-0.1934,-74.7819,32.73,47,81,2.02,CO,1722797654
96,tiksi,71.6872,128.8694,10.25,63,100,3.24,RU,1722797137
97,kokopo,-4.352,152.2633,24.42,88,100,3.5,PG,1722797656
98,saint-philippe,-21.3585,55.7679,17.77,77,41,3.48,RE,1722797480
99,nha trang,12.25,109.1833,27.0,86,84,2.36,VN,1722797658
100,porto belo,-27.1578,-48.5531,23.94,92,18,6.52,BR,1722797659
101,mount gambier,-37.8333,140.7667,4.38,85,100,1.89,AU,1722797403
102,papao,-17.75,-149.55,26.82,69,46,5.56,PF,1722797425
103,bilibino,68.0546,166.4372,6.49,72,70,1.36,RU,1722797077
104,minusinsk,53.7103,91.6875,19.01,83,15,3.13,RU,1722797664
105,moree,-29.4667,149.85,9.98,66,100,4.17,AU,1722797665
106,anadyr,64.75,177.4833,4.28,93,100,9.0,RU,1722797666
107,san luis de la loma,17.2706,-100.8939,30.89,62,75,4.11,MX,1722797510
108,st. john's,47.5649,-52.7093,23.66,89,100,6.17,CA,1722797117
109,flying fish cove,-10.4217,105.6791,24.82,88,100,4.12,CX,1722797516
110,opuwo,-18.0607,13.84,20.36,30,0,2.83,NA,1722797485
111,kapuskasing,49.4169,-82.4331,19.05,48,75,6.17,CA,1722797448
112,touba,8.2833,-7.6833,22.73,89,100,0.42,CI,1722797673
113,wainwright,52.839,-110.8572,24.37,43,70,5.06,CA,1722797674
114,alotau,-10.3069,150.4462,22.47,97,100,2.35,PG,1722797675
115,torchiarolo,40.4842,18.0525,29.11,58,24,3.6,IT,1722797676
116,awjilah,29.1081,21.2869,32.85,20,0,3.46,LY,1722797679
117,kulhudhuffushi,6.6221,73.07,27.94,77,100,4.02,MV,1722797681
118,hamilton,39.1834,-84.5333,33.27,55,20,2.57,US,1722797127
119,upington,-28.4478,21.2561,9.31,74,100,6.01,ZA,1722797441
120,kaya,13.0917,-1.0844,25.48,76,100,3.27,BF,1722797684
121,vernon,50.2581,-119.2691,31.83,34,100,1.54,CA,1722797686
122,urengoy,65.9667,78.3667,14.32,63,100,7.66,RU,1722797687
123,howrah,22.5892,88.3103,28.0,94,75,3.09,IN,1722797688
124,mahibadhoo,3.7833,72.9667,28.59,72,100,2.35,MV,1722797690
125,campo formoso,-10.5075,-40.3214,28.11,29,0,6.52,BR,1722797691
126,olonkinbyen,70.9221,-8.7187,6.17,96,100,3.33,SJ,1722797692
127,oswego,43.4501,-76.1497,31.47,77,6,4.24,US,1722797693
128,ust'-ilimsk,58.0006,102.6619,11.45,89,6,0.42,RU,1722797694
129,aberdeen,57.1437,-2.0981,16.27,76,100,8.23,GB,1722797295
130,siwa oasis,29.2041,25.5195,33.68,19,5,3.2,EG,1722797148
131,moyynkum,44.2914,72.9469,27.6,30,0,3.53,KZ,1722797697
132,remire-montjoly,4.9167,-52.2667,31.02,70,75,3.09,GF,1722797386
133,klyuchi,52.2667,79.1667,18.98,77,100,1.77,RU,1722797699
134,ocean city,39.2776,-74.5746,28.9,73,100,5.27,US,1722797587
135,puerto ayora,-0.7393,-90.3518,24.98,86,80,2.68,EC,1722797702
136,ponta delgada,37.7333,-25.6667,25.4,83,75,4.12,PT,1722797703
137,praia da vitoria,38.7333,-27.0667,27.64,74,40,3.82,PT,1722797264
138,padang,-0.9492,100.3543,26.03,91,43,1.91,ID,1722797536
139,ingeniero jacobacci,-41.3427,-69.5448,8.26,45,94,8.41,AR,1722797706
140,newcastle,-32.9272,151.7765,10.92,89,100,0.0,AU,1722797683
141,mangrol,21.1167,70.1167,27.51,88,100,8.53,IN,1722797709
142,shakawe,-18.3667,21.85,18.87,11,0,1.31,BW,1722797710
143,khandyga,62.6667,135.6,9.67,71,95,1.87,RU,1722797711
144,fortuna,40.5982,-124.1573,15.55,95,100,0.0,US,1722797511
145,vilyuchinsk,52.9306,158.4028,9.15,83,4,0.83,RU,1722797713
146,empalme,27.9667,-110.8167,33.66,57,99,5.93,MX,1722797714
147,kourou,5.1552,-52.6478,31.03,73,100,5.09,GF,1722797715
148,aral,40.5156,81.2636,27.54,36,88,2.78,CN,1722797716
149,urangan,-25.3,152.9,16.96,71,23,2.73,AU,1722797718
150,talnakh,69.4865,88.3972,8.57,70,0,5.64,RU,1722797433
151,petropavlovsk-kamchatsky,53.0452,158.6483,8.33,100,20,2.0,RU,1722797490
152,garachico,28.7781,-17.7646,22.06,73,40,5.66,ES,1722797721
153,vadso,70.0744,29.7487,13.49,93,75,6.69,NO,1722797722
154,terrace,54.5163,-128.6035,24.01,37,20,5.14,CA,1722797723
155,stanley,54.868,-1.6985,15.95,85,100,4.3,GB,1722797724
156,eureka,40.8021,-124.1637,15.7,88,86,0.45,US,1722797700
157,noosa heads,-26.3833,153.15,13.52,68,100,2.5,AU,1722797595
158,eyl,7.9803,49.8164,25.13,80,32,11.61,SO,1722797727
159,whitehorse,60.7161,-135.0538,19.5,51,40,1.54,CA,1722797729
160,zaozersk,69.4005,32.4476,8.22,96,67,3.28,RU,1722797330
161,gisborne,-38.6533,178.0042,5.15,86,76,2.89,NZ,1722797731
162,semnan,35.5729,53.3971,31.66,23,0,4.43,IR,1722797732
163,matoury,4.8483,-52.3317,30.98,70,75,3.09,GF,1722797734
164,mount pearl,47.5166,-52.7813,23.19,89,100,6.17,CA,1722797166
165,chinna salem,11.65,78.9,29.83,61,97,1.86,IN,1722797736
166,togur,58.3631,82.8265,16.76,98,99,2.2,RU,1722797738
167,guerrero negro,27.9769,-114.0611,26.92,51,20,6.43,MX,1722797739
168,gilgit,35.9221,74.3087,25.73,62,22,0.46,PK,1722797740
169,shimoda,34.6667,138.95,25.56,84,3,0.98,JP,1722797741
170,usogorsk,63.4106,48.6872,15.43,87,100,2.66,RU,1722797742
171,nizhnesortymskiy,62.4397,71.7603,18.49,70,9,2.64,RU,1722797744
172,haiku-pauwela,20.9219,-156.3051,25.14,85,75,8.23,US,1722797745
173,lazaro cardenas,17.9583,-102.2,30.96,59,98,3.41,MX,1722797746
174,blairgowrie,56.5916,-3.3405,15.51,92,100,0.45,GB,1722797747
175,yelizovo,53.1873,158.3805,9.08,100,20,2.0,RU,1722797748
176,longyearbyen,78.2186,15.6401,11.91,76,0,5.66,SJ,1722797749
177,vorkuta,67.5,64.0,10.16,61,100,5.94,RU,1722797750
178,joao neiva,-19.7575,-40.3856,22.72,76,27,2.84,BR,1722797751
179,tolga,34.7222,5.3785,39.45,14,0,4.47,DZ,1722797753
180,acapulco de juarez,16.8634,-99.8901,30.9,66,75,5.66,MX,1722796970
181,ternevskaya,45.8542,40.4086,25.26,45,2,3.35,RU,1722797755
182,at taj,24.2049,23.2857,30.56,14,6,4.48,LY,1722797756
183,richards bay,-28.783,32.0377,21.08,76,17,10.34,ZA,1722797757
184,vorgashor,67.5833,63.95,9.28,62,100,5.89,RU,1722797150
185,castillos,-34.1667,-53.8333,14.04,51,100,2.97,UY,1722797648
186,robore,-18.3333,-59.75,34.83,24,51,3.97,BO,1722797760
187,robbah,33.2797,6.9098,38.8,20,0,3.47,DZ,1722797761
188,dudinka,69.4058,86.1778,6.56,71,0,5.53,RU,1722797763
189,el granada,37.5027,-122.4694,23.99,74,40,6.69,US,1722797764
190,dubbo,-32.25,148.6167,7.07,87,100,3.6,AU,1722797766
191,mandali,33.7499,45.5541,34.11,15,0,2.28,IQ,1722797767
192,new norfolk,-42.7826,147.0587,8.84,86,83,1.4,AU,1722797456
193,lihue,21.9789,-159.3672,25.97,84,75,7.2,US,1722797769
194,sakata,38.9167,139.855,24.93,90,36,0.75,JP,1722797770
195,labrador city,52.9463,-66.9114,18.99,50,75,6.71,CA,1722797411
196,alofi,-19.0595,-169.9187,22.94,94,20,2.06,NU,1722797773
197,koksan,38.7819,126.6664,22.81,96,1,1.79,KP,1722797774
198,gadzhiyevo,69.2551,33.3362,9.71,88,1,2.58,RU,1722797776
199,pahrump,36.2083,-115.9839,39.06,16,100,1.79,US,1722797777
200,saint-pierre,-21.3393,55.4781,17.82,72,0,1.03,RE,1722797497
201,dubovka,49.0583,44.829,25.53,38,55,4.53,RU,1722797779
202,la seu d'urgell,42.3588,1.4614,29.56,26,20,3.6,ES,1722797780
203,kone,-21.0595,164.8658,15.45,73,51,1.61,NC,1722797609
204,zhanaozen,43.3,52.8,32.22,24,58,3.87,KZ,1722797408
205,noshiro,40.2039,140.0242,23.72,93,65,1.22,JP,1722797785
206,montevideo,-34.8335,-56.1674,15.01,44,75,4.12,UY,1722797672
207,gunsan,35.9786,126.7114,27.94,94,0,0.0,KR,1722797787
208,miranda do douro,41.4969,-6.2731,30.8,19,0,2.66,PT,1722797788
209,nagqu,31.5,92.0,3.94,82,0,1.4,CN,1722797695
210,enewetak,11.3474,162.3373,28.68,76,100,3.73,MH,1722797315
211,ifakara,-8.1333,36.6833,22.18,48,0,0.68,TZ,1722797791
212,aconibe,1.2968,10.9369,19.41,90,94,1.37,GQ,1722797793
213,ormond-by-the-sea,29.3491,-81.0665,30.03,87,75,5.66,US,1722797794
214,singkil,-7.9855,111.4161,21.42,94,6,2.22,ID,1722797795
215,dazhou,31.2159,107.5009,23.97,91,14,1.37,CN,1722797797
216,lautoka,-17.6167,177.4667,20.92,83,40,3.6,FJ,1722797798
217,rehoboth,-23.3167,17.0833,14.01,19,26,4.11,NA,1722797717
218,topchikha,52.8192,83.1185,17.97,61,92,1.23,RU,1722797801
219,morehead city,34.7229,-76.726,28.0,84,0,7.72,US,1722797802
220,tolanaro,-25.0319,46.9987,20.04,88,20,1.03,MG,1722797243
221,menaka,15.9182,2.4022,32.28,48,100,5.05,ML,1722797804
222,okha,53.5739,142.9478,10.9,77,100,4.58,RU,1722797805
223,santa cruz,-17.8,-63.1667,24.03,69,75,4.63,BO,1722797762
224,tucumcari,35.1717,-103.725,31.64,39,0,5.66,US,1722797808
225,fale old settlement,-9.3852,-171.2468,27.58,82,94,7.05,TK,1722797377
226,mejit,10.2753,170.8646,28.31,78,18,5.73,MH,1722797811
227,kuqa,41.7278,82.9364,27.22,36,99,1.75,CN,1722797813
228,soio,-6.1349,12.3689,21.01,83,10,3.86,AO,1722797814
229,yuzhno-kurilsk,44.0306,145.8556,16.06,98,100,2.95,RU,1722797238
230,adams,39.8667,-104.3839,37.13,17,92,2.9,US,1722797816
231,mazagao,-0.115,-51.2894,34.03,36,13,1.95,BR,1722797817
232,weno,7.4515,151.8468,27.97,89,75,2.06,FM,1722797523
233,newman,37.3138,-121.0208,34.47,21,0,1.37,US,1722797819
234,port lincoln,-34.7333,135.8667,10.62,84,89,1.16,AU,1722797820
235,vaggeryd,57.4981,14.1484,16.16,99,100,2.26,SE,1722797822
236,brookings,44.3114,-96.7984,21.14,94,100,2.57,US,1722797479
237,komsomol'skiy,43.9783,46.6985,23.58,64,0,3.61,RU,1722797825
238,yinchuan,38.4681,106.2731,26.31,34,81,3.7,CN,1722797826
239,maputo,-25.9653,32.5892,18.82,88,20,3.09,MZ,1722797553
240,freeport,40.6576,-73.5832,29.18,80,100,4.12,US,1722797768
241,akjoujt,19.6969,-14.4164,35.58,38,32,2.33,MR,1722797829
242,coquimbo,-29.9533,-71.3436,15.85,77,75,5.14,CL,1722797596
243,ngorongoro,-3.2397,35.4875,11.79,48,8,2.11,TZ,1722797831
244,puerto baquerizo moreno,-0.9,-89.6,23.55,88,40,5.14,EC,1722797361
245,long beach,33.767,-118.1892,34.93,57,0,3.09,US,1722797833
246,daru,-9.0763,143.2092,23.87,89,100,6.37,PG,1722797835
247,iskateley,67.6803,53.1512,8.35,76,100,6.76,RU,1722797837
248,mpanda,-6.3655,31.0409,20.49,27,4,0.48,TZ,1722797838
249,margate,51.3813,1.3862,20.39,60,86,0.45,GB,1722797815
250,prince rupert,54.3161,-130.3201,16.83,83,20,2.57,CA,1722797840
251,cova figueira,14.8905,-24.2934,21.23,76,100,2.8,CV,1722797841
252,morondava,-20.2833,44.2833,21.93,75,0,4.19,MG,1722797842
253,ribeira brava,32.65,-17.0667,25.95,76,5,1.08,PT,1722797774
254,ust-nera,64.5667,143.2,9.09,80,28,1.9,RU,1722797845
255,hawaiian paradise park,19.5933,-154.9731,23.82,93,100,2.57,US,1722797846
256,huangmei,30.1924,116.025,29.51,76,6,1.14,CN,1722797847
257,ierapetra,35.01,25.7353,28.97,40,0,2.24,GR,1722797848
258,houma,29.5958,-90.7195,34.44,64,75,3.09,US,1722797849
259,bonab,37.3404,46.0561,27.25,29,0,4.12,IR,1722797850
260,luanda,-8.8368,13.2343,19.88,85,87,4.64,AO,1722797795
261,kapa'a,22.0752,-159.319,26.38,78,75,7.2,US,1722797852
262,pamplona,42.8169,-1.6432,26.1,53,0,4.63,ES,1722797738
263,oxapampa,-10.5775,-75.4017,18.54,84,80,1.2,PE,1722797855
264,kapoeta,4.7717,33.5903,24.33,73,67,4.27,SS,1722797856
265,hadibu,12.65,54.0333,25.9,80,93,9.6,YE,1722797330
266,okhotsk,59.3833,143.3,12.21,84,55,2.14,RU,1722797858
267,saipan,15.1355,145.701,27.39,83,100,3.09,MP,1722797366
268,soe,-9.8607,124.284,15.44,93,17,2.09,ID,1722797860
269,jackson,42.4165,-122.8345,33.37,45,0,0.89,US,1722797861
270,ancud,-41.8697,-73.8203,8.47,92,100,3.71,CL,1722797862
271,levanger,63.7464,11.2996,18.03,91,100,3.0,NO,1722797865
272,chegdomyn,51.1167,133.0167,18.06,60,100,1.18,RU,1722797866
273,pekanbaru,0.5333,101.45,23.18,100,75,0.0,ID,1722797867
274,jogeva,58.7467,26.3939,17.16,97,16,2.01,EE,1722797868
275,callao,-12.0667,-77.15,18.16,68,75,4.63,PE,1722797869
276,ta`u,-14.2336,-169.5144,26.45,67,100,1.98,AS,1722797870
277,kailua-kona,19.6406,-155.9956,25.15,90,100,0.0,US,1722797669
278,codrington,-38.2667,141.9667,5.54,81,100,3.2,AU,1722797255
279,bonthe,7.5264,-12.505,25.26,84,99,3.45,SL,1722797873
280,al jawf,29.5,38.75,30.21,16,5,3.52,SA,1722797874
281,chachapoyas,-6.2317,-77.869,18.13,58,99,1.45,PE,1722797876
282,knyaze-volkonskoye,48.4642,135.4567,15.19,85,66,1.76,RU,1722797878
283,gizo,-8.103,156.8419,26.41,81,100,1.74,SB,1722797879
284,happy valley-goose bay,53.3168,-60.3315,28.17,39,20,5.14,CA,1722797637
285,tucurui,-3.7661,-49.6725,34.81,25,32,2.91,BR,1722797881
286,belozersk,60.0326,37.7957,16.03,91,51,2.84,RU,1722797882
287,sibolga,1.7427,98.7792,25.56,77,99,1.48,ID,1722797883
288,kamina,-8.7386,24.9906,20.87,26,0,1.53,CD,1722797884
289,choyr,46.3611,108.3611,17.43,61,6,1.09,MN,1722797653
290,kayangel,8.0823,134.7173,28.48,76,100,4.46,PW,1722797887
291,tura,25.5198,90.2201,24.01,98,100,1.84,IN,1722797888
292,armacao de buzios,-22.7469,-41.8817,28.03,75,0,11.03,BR,1722797889
293,kavaratti,10.5669,72.642,27.67,84,21,5.45,IN,1722797313
294,sarmiento,-45.5882,-69.07,8.83,55,100,1.09,AR,1722797891
295,vidalia,32.2177,-82.4135,30.97,66,40,3.6,US,1722797892
296,shiyan,32.6475,110.7781,24.64,93,51,1.76,CN,1722797893
297,savanna-la-mar,18.219,-78.1332,32.97,73,96,5.17,JM,1722797619
298,sitka,57.0531,-135.33,16.94,72,20,1.54,US,1722797896
299,fort bragg,35.139,-79.006,32.04,68,20,3.6,US,1722797664
300,solleftea,63.1667,17.2667,16.92,94,13,1.39,SE,1722797898
301,nuuk,64.1835,-51.7216,8.34,81,0,3.09,GL,1722797703
302,kasongo-lunda,-6.4667,16.8167,28.08,32,100,1.09,CD,1722797900
303,vicuna,-30.0319,-70.7081,11.85,47,100,2.3,CL,1722797901
304,merizo village,13.2658,144.6691,26.85,79,89,4.78,GU,1722797902
305,uturoa,-16.7333,-151.4333,24.8,71,12,7.89,PF,1722797904
306,howard springs,-12.497,131.047,21.95,92,100,2.13,AU,1722797905
307,uliastay,47.7417,96.8444,12.45,60,0,1.28,MN,1722797729
308,shenkursk,62.1091,42.896,16.02,93,100,2.29,RU,1722797907
309,kununurra,-15.7667,128.7333,16.99,88,0,1.03,AU,1722797517
310,galveston,29.3669,-94.9669,35.01,76,89,3.41,US,1722797910
311,obihiro,42.9172,143.2044,19.06,96,100,0.97,JP,1722797911
312,amvrosiyivka,47.7935,38.4777,21.72,64,78,1.15,UA,1722797912
313,akureyri,65.6835,-18.0878,15.96,51,75,5.14,IS,1722797914
314,unjha,23.8,72.4,27.62,85,100,4.55,IN,1722797915
315,vega de alatorre,20.0333,-96.6333,29.66,65,0,3.84,MX,1722797916
316,sur,22.5667,59.5289,32.15,60,100,1.43,OM,1722797917
317,aripuana,-9.1667,-60.6333,37.65,20,0,1.94,BR,1722797918
318,arraial do cabo,-22.9661,-42.0278,26.98,65,0,8.23,BR,1722797919
319,shangrao,28.4532,117.9686,26.35,80,99,0.68,CN,1722797920
320,nova sintra,14.8667,-24.7167,27.25,77,100,2.37,CV,1722797922
321,mugia,43.1041,-9.2179,25.65,85,0,5.53,ES,1722797923
322,kill devil hills,36.0307,-75.676,26.1,92,100,11.1,US,1722797924
323,al mindak,20.1588,41.2834,17.78,74,97,0.86,SA,1722797925
324,canete,-37.8,-73.4,9.74,85,100,6.7,CL,1722797926
325,ambon,-3.6954,128.1814,26.04,95,75,4.63,ID,1722797927
326,nova vicosa,-17.8919,-39.3719,24.96,71,0,3.91,BR,1722797928
327,preston,53.7667,-2.7167,18.99,80,100,2.49,GB,1722797929
328,pandan,14.0453,124.1694,26.57,86,54,2.54,PH,1722797745
329,tanjung pandan,-2.75,107.65,24.17,84,100,2.7,ID,1722797932
330,madang,-5.2246,145.7966,24.79,89,99,1.79,PG,1722797933
331,east london,-33.0153,27.9116,13.52,58,0,11.83,ZA,1722797934
332,ceres,37.5949,-120.9577,34.47,40,0,3.6,US,1722797935
333,duong dong,10.2167,103.9667,26.0,89,40,2.57,VN,1722797936
334,bocas del toro,9.3333,-82.25,27.81,73,100,2.21,PA,1722797937
335,madera,37.1666,-119.8343,39.14,20,0,3.16,US,1722797875
336,beyneu,45.3167,55.2,32.87,22,72,3.58,KZ,1722797939
337,hirara,24.8,125.2833,28.92,89,40,3.6,JP,1722797941
338,priob'ye,62.5206,65.5964,17.39,85,85,1.6,RU,1722797942
339,polygyros,40.3744,23.4383,27.06,66,87,1.91,GR,1722797943
340,naze,28.3667,129.4833,28.51,83,22,5.35,JP,1722797944
341,kharp,66.8014,65.8081,11.97,55,100,7.41,RU,1722797945
342,al jubayl,27.0112,49.6583,35.43,35,100,4.64,SA,1722797676
343,sao joao da barra,-21.6403,-41.0511,27.05,79,0,6.76,BR,1722797948
344,capao da canoa,-29.7456,-50.0097,16.84,94,100,1.04,BR,1722797949
345,enriquillo,17.9,-71.2333,32.82,63,11,5.14,DO,1722797950
346,lompoc,34.6391,-120.4579,26.08,49,0,4.67,US,1722797951
347,homer,59.6425,-151.5483,14.94,73,20,2.06,US,1722797952
348,kos,36.8933,27.2889,28.69,72,0,2.48,GR,1722797953
349,mata-utu,-13.2816,-176.1745,26.86,71,52,3.47,WF,1722797956
350,bhagwantnagar,26.2333,80.75,27.13,84,84,4.95,IN,1722797957
351,bac lieu,9.285,105.7244,26.08,85,90,3.31,VN,1722797958
352,hammerfest,70.6634,23.6821,22.25,49,0,4.12,NO,1722797959
353,vila franca do campo,37.7167,-25.4333,25.23,70,37,2.11,PT,1722797960
354,sydney mines,46.2367,-60.2177,32.81,62,20,4.12,CA,1722797961
355,axim,4.8699,-2.2405,24.47,82,100,3.11,GH,1722797393
356,midvagur,62.0511,-7.1939,11.46,100,100,12.35,FO,1722797963
357,norilsk,69.3535,88.2027,7.95,74,0,4.59,RU,1722797964
358,mpika,-11.8343,31.4529,13.97,41,7,0.76,ZM,1722797965
359,al muwayh,22.4333,41.7583,33.05,31,100,8.61,SA,1722797967
360,juneau,58.3019,-134.4197,18.0,68,20,2.57,US,1722797403
361,karratha,-20.7377,116.8463,17.94,57,0,5.06,AU,1722797327
362,zalesovo,53.9939,84.7431,16.45,92,12,1.39,RU,1722797970
363,northam,51.0333,-4.2167,19.1,84,100,4.92,GB,1722797971
364,roses,42.262,3.1769,29.62,67,0,2.76,ES,1722797973
365,rikaze,29.25,88.8833,14.76,62,98,1.99,CN,1722797974
366,novaya igirma,57.1334,103.9112,11.84,95,6,1.35,RU,1722797975
367,sunam,30.1333,75.8,29.71,68,7,2.2,IN,1722797977
368,summerland,49.5998,-119.6691,31.25,34,75,4.63,CA,1722797978
369,rio grande,-32.035,-52.0986,21.06,95,100,2.25,BR,1722797957
370,pariaman,-0.619,100.12,26.03,90,87,1.91,ID,1722797841
371,ati,13.2154,18.3353,23.01,88,100,6.9,TD,1722797981
372,denov,38.2667,67.9,29.23,18,0,0.85,UZ,1722797982
373,la passe,45.5549,-0.8967,26.13,78,0,3.99,FR,1722797983
374,sault ste. marie,46.5168,-84.3333,24.31,73,75,4.63,CA,1722797965
375,murray bridge,-35.1167,139.2667,9.63,83,100,1.62,AU,1722797985
376,afif,23.9065,42.9172,32.52,17,89,4.5,SA,1722797986
377,carnarvon,-24.8667,113.6333,16.87,72,0,7.1,AU,1722797988
378,williamston,35.8546,-77.0555,30.94,80,100,5.15,US,1722797989
379,songea,-10.6833,35.65,14.94,52,0,1.23,TZ,1722797990
380,qaisumah,28.3112,46.1273,36.98,11,0,6.17,SA,1722797991
381,ishigaki,24.3448,124.1572,27.07,94,5,2.06,JP,1722797992
382,pierre,44.3683,-100.351,23.51,68,0,3.09,US,1722797778
383,totness,5.8833,-56.3167,26.94,85,100,2.27,SR,1722797994
384,lodja,-3.4833,23.4333,26.51,45,10,1.33,CD,1722797995
385,thomasville,35.8826,-80.082,31.15,66,50,0.89,US,1722797996
386,nuku'alofa,-21.1333,-175.2,21.19,83,75,3.09,TO,1722797998
387,am timan,11.0297,20.2827,20.98,96,100,1.95,TD,1722797999
388,nandurbar,21.3667,74.25,24.64,95,100,8.02,IN,1722798000
389,hirtshals,57.5881,9.9592,16.03,77,21,9.41,DK,1722798001
390,yola,9.2,12.4833,27.9,78,40,2.57,NG,1722798002
391,ataq,14.5377,46.8319,25.49,70,2,4.92,YE,1722798003
392,san,13.3034,-4.8956,25.87,82,100,2.71,ML,1722798004
393,aiken,33.5835,-81.5998,33.12,67,75,3.09,US,1722798005
394,dunedin,-45.8742,170.5036,7.11,64,100,5.99,NZ,1722798007
395,laojunmiao,39.8333,97.7333,23.91,20,52,2.13,CN,1722798008
396,isabela,6.7085,121.9711,25.03,90,98,1.71,PH,1722798009
397,glasgow,55.8652,-4.2576,15.11,88,75,4.12,GB,1722797977
398,tomatlan,19.9333,-105.25,33.42,52,100,3.09,MX,1722798011
399,sikasso,10.9167,-7.0,22.27,93,100,1.73,ML,1722798012
400,seven pagodas,12.6264,80.1722,28.39,80,100,5.59,IN,1722798014
401,manokwari,-0.8667,134.0833,25.42,87,100,4.3,ID,1722798015
402,alice springs,-23.7,133.8833,7.75,93,40,1.54,AU,1722798016
403,katsuura,35.1333,140.3,24.27,90,70,1.43,JP,1722798017
404,port blair,11.6667,92.75,26.02,89,75,0.51,IN,1722798018
405,harper,4.375,-7.7169,24.35,82,57,3.17,LR,1722798019
406,minas de marcona,-15.2119,-75.1103,17.42,53,0,6.25,PE,1722798020
407,watertown,42.3709,-71.1828,30.23,66,100,3.13,US,1722797824
408,mitu,1.1983,-70.1733,27.24,86,100,0.34,CO,1722797880
409,koryazhma,61.3143,47.1691,15.03,99,99,1.82,RU,1722798024
410,quelimane,-17.8786,36.8883,19.13,86,62,2.36,MZ,1722798025
411,sarakhs,36.5449,61.1577,31.17,17,5,4.07,IR,1722798026
412,silver city,32.7701,-108.2803,32.17,30,40,2.06,US,1722798027
413,orange cove,36.6244,-119.3137,39.9,29,0,4.12,US,1722798029
414,baardheere,2.3446,42.2764,25.09,65,26,9.07,SO,1722798030
415,kuusamo,65.9667,29.1833,17.02,63,0,1.54,FI,1722798031
416,frontera,26.9333,-101.45,34.38,37,0,2.24,MX,1722798032
417,bakchar,57.0186,82.0711,15.96,98,67,1.81,RU,1722798033
418,luderitz,-26.6481,15.1594,13.74,80,100,3.7,NA,1722798034
419,inhambane,-23.865,35.3833,21.99,88,0,5.81,MZ,1722798035
420,puri,19.8,85.85,29.29,88,100,5.18,IN,1722798036
421,cidreira,-30.1811,-50.2056,16.13,98,100,2.48,BR,1722798037
422,gaigeturi,33.4644,126.3183,29.03,79,40,1.03,KR,1722798038
423,martapura,-3.4167,114.85,24.05,94,78,0.51,ID,1722798040
424,andergrove,-21.0833,149.1833,18.69,74,100,4.64,AU,1722797499
425,pindushi,62.9152,34.58,13.38,88,16,3.16,RU,1722798042
426,brokopondo,4.75,-55.1667,32.09,51,100,2.5,SR,1722798043
427,tobelo,1.7284,128.0095,25.79,84,100,1.96,ID,1722798044
428,dothan,31.2232,-85.3905,32.95,65,75,4.12,US,1722797887
429,schuyler,42.4167,-76.883,31.28,29,8,2.96,US,1722798047
430,hisar,29.1667,75.7167,28.84,77,6,4.3,IN,1722798048
431,palanga,55.9175,21.0686,17.01,88,40,0.51,LT,1722798050
432,keflavik,64.0049,-22.5624,14.95,67,0,5.14,IS,1722798051
433,xiuyan,40.2928,123.2744,23.63,99,100,1.45,CN,1722798052
434,toliara,-23.35,43.6667,19.82,83,0,3.42,MG,1722798053
435,egilsstadir,65.2653,-14.3948,10.95,82,75,5.66,IS,1722798054
436,uvinza,-5.1036,30.3911,21.55,35,11,1.03,TZ,1722798055
437,eustis,28.8528,-81.6853,28.03,86,100,4.47,US,1722798056
438,inari,68.906,27.0288,18.11,69,6,2.51,FI,1722798057
439,laredo,27.5064,-99.5075,37.16,32,0,2.57,US,1722797935
440,teguise,29.0605,-13.564,23.12,69,20,8.23,ES,1722798059
441,alakurtti,66.9672,30.3491,14.48,69,16,1.39,RU,1722798061
442,kruisfontein,-34.0033,24.7314,11.6,62,73,9.24,ZA,1722798062
443,nar'yan-mar,67.6713,53.087,8.34,76,100,6.8,RU,1722798063
444,tual,-5.6667,132.75,25.17,84,70,8.64,ID,1722798064
445,athens,37.9795,23.7162,31.49,48,20,1.79,GR,1722798062
446,polovinnoye,54.7914,65.9864,14.69,93,8,3.6,RU,1722798066
447,pangody,65.85,74.4859,14.97,66,91,8.38,RU,1722798067
448,kili,5.6439,169.1211,28.1,78,100,4.26,MH,1722798068
449,camayenne,9.535,-13.6878,27.05,83,75,4.12,GN,1722798070
450,aswan,24.0934,32.907,32.82,51,100,3.49,EG,1722798071
451,paka,4.6374,103.4368,23.96,94,97,0.0,MY,1722798072
452,zyryanovsk,49.7386,84.2719,14.22,78,6,0.87,KZ,1722798073
453,newquay,50.4132,-5.0819,18.42,77,75,5.66,GB,1722798074
454,piti village,13.4626,144.6933,27.03,91,98,4.15,GU,1722798075
455,maun,-19.9833,23.4167,20.75,10,0,1.37,BW,1722798076
456,puerto bolivar,-3.2667,-79.9833,27.0,69,75,4.63,EC,1722798078
457,paciran,-6.8767,112.3761,24.39,81,23,2.23,ID,1722798079
458,illizi,26.4833,8.4667,41.89,9,2,2.52,DZ,1722798080
459,plymouth,41.8334,-70.8328,29.82,75,87,0.89,US,1722798081
460,sumbawanga,-7.9667,31.6167,14.91,30,1,1.26,TZ,1722798082
461,zalingei,12.9096,23.4741,19.98,95,100,3.21,SD,1722798083
462,seabra,-12.4186,-41.7703,21.15,61,96,4.04,BR,1722798073
463,gubkinskiy,64.434,76.5026,18.14,86,100,6.48,RU,1722798085
464,carhuaz,-9.2819,-77.6447,20.06,42,70,2.18,PE,1722798087
465,jose maria morelos,30.8066,-112.684,39.37,30,0,4.09,MX,1722798088
466,chernyshevskiy,63.0128,112.4714,10.27,68,5,1.88,RU,1722798089
467,severo-yeniseyskiy,60.3725,93.0408,11.85,69,49,1.88,RU,1722798090
468,las khorey,11.1595,48.1967,31.89,57,15,2.89,SO,1722798091
469,molochnoye,59.2917,39.6787,14.8,93,54,2.76,RU,1722798092
470,umba,66.6871,34.3429,13.6,69,5,4.42,RU,1722798093
471,cabo san lucas,22.8909,-109.9124,32.51,68,56,1.79,MX,1722798094
472,bageshwar,29.85,79.7667,22.94,95,54,0.29,IN,1722798095
473,progreso,21.2833,-89.6667,34.5,86,100,4.5,MX,1722798097
474,cockburn town,21.4612,-71.1419,28.24,82,100,9.2,TC,1722798098
475,severo-vostotchnyi bank,39.4112,49.2479,26.51,71,0,3.27,AZ,1722798100
476,mataram,-8.5833,116.1167,22.45,85,64,4.86,ID,1722798101
477,dryden,49.7833,-92.7503,19.16,52,75,1.54,CA,1722798102
478,isangel,-19.55,169.2667,20.29,64,54,6.4,VU,1722798103
479,arkhangel'sk,64.5401,40.5433,15.06,82,20,4.0,RU,1722798104
480,sandnessjoen,66.0217,12.6316,24.06,50,20,1.03,NO,1722797528
481,balqash,46.8481,74.995,24.43,40,3,5.71,KZ,1722798107
482,ust-kamenogorsk,49.9789,82.6103,14.96,82,100,3.0,KZ,1722798108
483,sievi,63.9,24.5,15.01,88,100,1.82,FI,1722798109
484,santana,-0.0583,-51.1817,34.1,52,40,3.6,BR,1722798110
485,kindu,-2.95,25.95,26.38,35,9,0.73,CD,1722798111
486,pimenta bueno,-11.6725,-61.1936,38.21,19,11,2.15,BR,1722798076
487,fort mcmurray,56.7268,-111.381,22.73,49,0,4.63,CA,1722798008
488,muravlenko,63.7898,74.523,17.39,94,100,5.91,RU,1722798114
489,sao desiderio,-12.3633,-44.9733,31.32,20,0,4.3,BR,1722798115
490,quibala,-10.7337,14.98,19.99,65,12,1.27,AO,1722798117
491,el calafate,-50.3408,-72.2768,2.18,98,100,0.88,AR,1722798002
492,port macquarie,-31.4333,152.9167,10.04,96,100,0.89,AU,1722798119
493,sinop,41.7711,34.8709,19.76,48,3,1.75,TR,1722798120
494,gao,16.6362,1.637,29.87,57,100,3.49,ML,1722798121
495,sarupathar,26.1984,93.8094,25.01,98,100,0.83,IN,1722798123
496,mahenge,-8.6833,36.7167,17.85,46,0,1.29,TZ,1722798124
497,moss vale,-34.55,150.3833,5.18,85,100,0.98,AU,1722798125
498,el obeid,13.1842,30.2167,29.07,55,93,5.96,SD,1722798126
499,san isidro,-12.1167,-77.05,17.77,68,75,4.63,PE,1722797782
500,ostersund,63.1792,14.6357,18.25,72,100,3.09,SE,1722798128
501,wickenburg,33.9686,-112.7296,41.91,22,0,2.24,US,1722798041
502,santa ines,-3.6667,-45.38,35.39,23,5,2.86,BR,1722798131
503,shetpe,44.1667,52.1167,26.73,44,100,4.3,KZ,1722798132
504,pacasmayo,-7.4006,-79.5714,20.19,70,18,6.86,PE,1722798133
505,yerofey pavlovich,53.9667,121.9667,15.91,99,100,1.68,RU,1722798134
506,nephi,39.7102,-111.8363,33.43,21,12,4.28,US,1722797848
507,belousovka,50.1339,82.5239,14.47,82,85,3.0,KZ,1722798136
508,olinda,-8.0089,-34.8553,26.85,69,40,6.17,BR,1722797842
509,eagle river,45.9172,-89.2443,23.99,63,100,2.06,US,1722798138
510,mermoz boabab,14.7065,-17.4758,27.31,89,40,4.12,SN,1722798140
511,conception bay south,47.4999,-52.9981,23.53,91,100,5.11,CA,1722798040
512,hasaki,35.7333,140.8333,24.22,86,5,1.83,JP,1722798064
513,tosontsengel,48.7567,98.2839,10.73,85,100,1.3,MN,1722798144
514,luuq,3.7938,42.5445,27.85,50,97,9.33,SO,1722798145
515,ta'if,21.2703,40.4158,26.56,51,73,3.12,SA,1722797861
516,serenje,-13.2325,30.2352,14.07,33,2,1.76,ZM,1722798147
517,lodwar,3.1191,35.5973,31.74,38,100,3.98,KE,1722798003
518,comodoro rivadavia,-45.8667,-67.5,9.92,53,0,2.57,AR,1722798029
519,krasnoturansk,54.3186,91.5639,16.79,84,89,0.93,RU,1722798151
520,revda,56.801,59.9303,13.58,98,35,2.2,RU,1722798152
521,balakhta,55.38,91.6,16.91,94,100,1.69,RU,1722798153
522,mukharram al fawqani,34.8151,37.0861,23.38,67,0,6.16,SY,1722798154
523,raduzhny,62.0961,77.475,16.87,93,100,1.28,RU,1722798155
524,inirida,3.8653,-67.9239,29.83,62,100,1.6,CO,1722798156
525,trapani,37.8333,12.6667,28.52,68,0,3.47,IT,1722798157
526,blenheim,-41.516,173.9528,0.29,85,18,0.89,NZ,1722798160
527,marka,1.7159,44.7717,24.33,73,93,8.22,SO,1722798161
528,nemuro,43.3236,145.575,15.52,100,100,3.48,JP,1722798128
529,kayyerkan,69.3786,87.7439,6.29,77,0,7.41,RU,1722798125
530,gabrovo,42.8747,25.3342,21.19,47,2,2.36,BG,1722798164
531,kas,36.2018,29.6377,28.67,44,0,3.72,TR,1722798165
532,kismayo,-0.3582,42.5454,24.51,75,24,8.59,SO,1722798166
533,bel ombre,-4.6167,55.4167,24.91,88,75,4.12,SC,1722798167
534,kirksville,40.1948,-92.5833,32.25,47,0,4.63,US,1722798168
535,port douglas,-16.4833,145.4667,20.91,82,73,4.81,AU,1722798170
536,bengkulu,-3.8004,102.2655,24.55,92,100,4.69,ID,1722798171
537,weare,43.0948,-71.7306,25.09,99,100,1.34,US,1722798172
538,fiche,9.8,38.7333,12.28,85,78,1.75,ET,1722798173
539,simanggang,1.2472,111.4528,25.01,94,100,0.0,MY,1722798174
540,tarfaya,27.9358,-12.9218,21.47,90,7,8.04,MA,1722798175
541,santa isabel,-23.3156,-46.2214,29.61,29,20,2.88,BR,1722798176
542,darnah,32.767,22.6367,27.49,69,0,5.03,LY,1722798177
543,igarka,67.4667,86.5833,8.56,71,0,6.03,RU,1722798126
544,wetaskiwin,52.9668,-113.3687,20.71,48,93,4.85,CA,1722798011
545,termas de rio hondo,-27.4998,-64.8604,21.48,31,0,2.09,AR,1722798181
546,anchorage,61.2181,-149.9003,15.71,82,100,1.54,US,1722798004
547,malabar,-33.9667,151.25,10.43,87,100,2.06,AU,1722798183
548,mil'kovo,55.6078,37.7956,19.22,64,2,2.31,RU,1722798184
549,zouerate,22.7187,-12.4521,38.11,25,9,4.51,MR,1722798185
550,warrenton,-28.114,24.8475,13.42,31,97,8.33,ZA,1722798164
551,touros,-5.1989,-35.4608,26.27,65,0,7.44,BR,1722798007
552,hilo,19.7297,-155.09,24.23,97,100,2.57,US,1722798134
553,camocim,-2.9022,-40.8411,30.96,47,3,6.96,BR,1722798134
554,floro,61.5996,5.0328,14.98,82,75,2.57,NO,1722798191
555,belyy yar,53.6039,91.3903,18.94,77,0,3.0,RU,1722798192
556,manicore,-5.8092,-61.3003,38.83,21,26,2.67,BR,1722798193
557,ifanadiana,-21.3,47.6333,14.42,94,1,1.15,MG,1722798194
558,huarmey,-10.0681,-78.1522,20.67,67,5,5.8,PE,1722798195
559,chernomorskoye,45.5039,32.6997,23.31,71,100,6.92,UA,1722798197
560,borogontsy,62.6683,131.1683,10.49,70,100,2.57,RU,1722798199
561,el bauga,18.262,33.9081,33.89,43,85,5.11,SD,1722798200
